City_ID,City,Lat,Lng,Max_Temp,Humidity,Cloudiness,Wind_Speed,Country,Date
0,coihaique,-45.5752,-72.0662,48.0,95,88,4.7,CL,1619757774
1,punta arenas,-53.15,-70.9167,42.8,93,90,5.75,CL,1619757701
2,mataura,-46.1927,168.8643,53.01,72,24,10.0,NZ,1619757689
3,bengkulu,-3.8004,102.2655,81.64,78,98,5.66,ID,1619757722
4,cape town,-33.9258,18.4232,57.99,77,20,12.66,ZA,1619757496
5,port alfred,-33.5906,26.891,63.01,65,96,14.18,ZA,1619757776
6,new norfolk,-42.7826,147.0587,68.0,45,30,3.0,AU,1619757741
7,lahat,-3.8,103.5333,82.4,83,98,2.15,ID,1619757665
8,vaini,-21.2,-175.2,75.2,94,90,12.66,TO,1619757708
9,khatanga,71.9667,102.5,33.13,100,100,4.14,RU,1619757704
10,ponta do sol,32.6667,-17.1,55.99,73,47,1.99,PT,1619757718
11,cayenne,4.9333,-52.3333,78.01,100,75,4.43,GF,1619757752
12,lorengau,-2.0226,147.2712,83.62,74,98,4.0,PG,1619757705
13,arraial do cabo,-22.9661,-42.0278,72.25,67,27,8.46,BR,1619757698
14,bluff,-46.6,168.3333,53.01,72,33,10.0,NZ,1619757703
15,pisco,-13.7,-76.2167,64.99,88,0,2.3,PE,1619757716
16,busselton,-33.65,115.3333,62.01,75,45,3.0,AU,1619757703
17,atuona,-9.8,-139.0333,79.34,70,8,4.52,PF,1619757697
18,namibe,-15.1961,12.1522,73.31,79,86,2.84,AO,1619757779
19,provideniya,64.3833,-173.3,26.6,86,90,11.18,RU,1619757722
20,rikitea,-23.1203,-134.9692,77.34,71,91,11.95,PF,1619757699
21,hailar,49.2,119.7,44.83,29,100,7.65,CN,1619757780
22,tuktoyaktuk,69.4541,-133.0374,24.8,80,1,11.5,CA,1619757761
23,antofagasta,-23.65,-70.4,60.8,82,0,4.61,CL,1619757781
24,pasighat,28.0667,95.3333,97.11,21,20,5.12,IN,1619757781
25,aksarka,66.5606,67.7975,27.32,89,100,9.62,RU,1619757782
26,lata,40.1629,-8.3327,48.99,86,84,1.72,PT,1619757782
27,port elizabeth,-33.918,25.5701,55.4,94,0,10.36,ZA,1619757709
28,barrow,71.2906,-156.7887,19.4,86,90,5.75,US,1619757746
29,nioro,13.35,-15.75,74.19,39,32,3.27,GM,1619757783
30,georgetown,5.4112,100.3354,89.6,70,20,4.61,MY,1619757688
31,morgan city,29.6994,-91.2068,75.2,100,1,4.61,US,1619757700
32,matagami,49.7502,-77.6328,44.6,61,90,2.3,CA,1619757784
33,mahibadhoo,3.7833,72.9667,83.32,69,7,3.58,MV,1619757784
34,hermanus,-34.4187,19.2345,51.01,91,54,1.01,ZA,1619757697
35,tuatapere,-46.1333,167.6833,53.01,72,60,10.0,NZ,1619757785
36,gangarampur,25.4,88.5167,101.8,22,0,4.76,IN,1619757785
37,adrar,20.5022,-10.0711,74.75,38,9,9.55,MR,1619757750
38,barmer,25.75,71.3833,93.65,24,3,6.46,IN,1619757786
39,karakol,42.4907,78.3936,66.38,26,0,6.53,KG,1619757787
40,grindavik,63.8424,-22.4338,39.2,87,75,4.61,IS,1619757692
41,la ronge,55.1001,-105.2842,33.8,47,30,3.44,CA,1619757787
42,carnarvon,-24.8667,113.6333,80.6,50,100,17.27,AU,1619757701
43,avarua,-21.2078,-159.775,80.6,83,20,6.91,CK,1619757697
44,kapaa,22.0752,-159.319,75.2,69,1,13.8,US,1619757742
45,thompson,55.7435,-97.8558,24.8,68,40,7.43,CA,1619757729
46,bayan,46.0833,127.4,64.11,20,70,7.72,CN,1619757788
47,ushuaia,-54.8,-68.3,39.2,75,90,5.75,AR,1619757685
48,karratha,-20.7377,116.8463,93.79,23,0,10.0,AU,1619757789
49,souillac,-20.5167,57.5167,78.8,83,40,12.66,MU,1619757789
50,vigrestad,58.5667,5.7,39.0,75,0,8.05,NO,1619757791
51,bethel,41.3712,-73.414,66.0,91,100,7.92,US,1619757745
52,pokosnoye,55.5258,101.0536,44.82,66,96,12.41,RU,1619757767
53,uruzgan,32.8333,66.0,72.88,26,68,0.22,AF,1619757791
54,pitimbu,-7.4706,-34.8086,73.4,100,40,5.75,BR,1619757792
55,shenjiamen,29.9576,122.298,66.52,74,0,12.53,CN,1619757792
56,susangerd,31.5608,48.1831,80.6,29,0,2.3,IR,1619757793
57,isla mujeres,21.2311,-86.731,81.0,74,40,10.36,MX,1619757793
58,severo-kurilsk,50.6789,156.125,40.39,76,22,11.14,RU,1619757793
59,airai,-8.9266,125.4092,71.91,67,44,2.26,TL,1619757736
60,san quintin,30.4833,-115.95,62.33,79,0,6.42,MX,1619757794
61,kisanga,-7.4362,37.7034,73.56,91,100,2.77,TZ,1619757794
62,bredasdorp,-34.5322,20.0403,46.4,93,5,3.44,ZA,1619757695
63,praia da vitoria,38.7333,-27.0667,54.0,73,100,1.01,PT,1619757795
64,albany,42.6001,-73.9662,55.99,89,100,4.56,US,1619757478
65,lebu,-37.6167,-73.65,55.18,93,100,9.04,CL,1619757609
66,xiaoyi,34.6178,109.703,89.04,16,37,23.04,CN,1619757796
67,kupino,54.3663,77.2981,54.0,41,3,12.3,RU,1619757796
68,bambous virieux,-20.3428,57.7575,80.01,83,40,12.66,MU,1619757797
69,sioux lookout,50.1001,-91.917,35.6,51,75,8.05,CA,1619757797
70,jamestown,42.097,-79.2353,45.0,100,90,16.11,US,1619757445
71,meulaboh,4.1363,96.1285,84.15,71,78,7.16,ID,1619757713
72,victoria,22.2855,114.1577,82.4,57,20,8.05,HK,1619757756
73,inverness,57.4791,-4.224,37.4,93,40,2.3,GB,1619757798
74,beringovskiy,63.05,179.3167,28.56,81,41,6.73,RU,1619757770
75,hendrina,-26.1588,29.7153,51.01,80,72,1.01,ZA,1619757541
76,upernavik,72.7868,-56.1549,21.79,55,99,4.7,GL,1619757757
77,sept-iles,50.2001,-66.3821,44.01,81,75,3.44,CA,1619757799
78,champasak,14.75,106.0,89.6,58,20,11.5,LA,1619757799
79,mangai,-4.05,19.5333,69.06,98,100,0.34,CD,1619757800
80,east london,-33.0153,27.9116,63.61,71,100,13.85,ZA,1619757716
81,atambua,-9.1061,124.8925,82.8,65,25,3.47,ID,1619757801
82,castro,-24.7911,-50.0119,48.58,99,23,5.75,BR,1619757702
83,dikson,73.5069,80.5464,13.78,86,40,11.39,RU,1619757700
84,qaanaaq,77.484,-69.3632,25.02,60,100,10.33,GL,1619757687
85,unai,-16.3575,-46.9061,67.26,92,100,0.94,BR,1619757802
86,saint-augustin,51.226,-58.6502,39.04,86,100,5.12,CA,1619757802
87,yangjiang,21.85,111.9667,82.0,52,86,6.73,CN,1619757803
88,linqiong,30.4159,103.4609,82.0,47,0,4.47,CN,1619757803
89,flinders,-34.5833,150.8552,72.0,72,9,3.0,AU,1619757804
90,aklavik,68.2191,-135.0107,42.8,38,24,3.44,CA,1619757773
91,tiksi,71.6872,128.8694,32.76,84,83,4.21,RU,1619757686
92,saint-philippe,-21.3585,55.7679,77.0,78,45,9.22,RE,1619757690
93,kaitangata,-46.2817,169.8464,53.01,58,36,8.01,NZ,1619757804
94,ola,59.5833,151.2833,37.78,64,34,3.22,RU,1619757805
95,tasiilaq,65.6145,-37.6368,28.4,93,99,1.14,GL,1619757721
96,viedma,-40.8135,-62.9967,65.28,63,97,17.54,AR,1619757519
97,bhimunipatnam,17.8833,83.4333,87.8,74,40,4.61,IN,1619757806
98,hobart,-42.8794,147.3294,68.0,55,20,3.44,AU,1619757706
99,oancea,45.9167,28.1,52.29,84,85,9.26,RO,1619757806
100,zhangye,38.9342,100.4517,77.0,10,0,12.12,CN,1619757548
101,siedlce,52.1677,22.2901,51.01,83,100,7.23,PL,1619757808
102,faanui,-16.4833,-151.75,81.41,70,98,2.89,PF,1619757808
103,noshiro,40.2039,140.0242,50.0,87,75,13.8,JP,1619757808
104,kavieng,-2.5744,150.7967,84.79,68,40,8.84,PG,1619757756
105,luancheng,37.8792,114.6517,60.8,44,0,8.95,CN,1619757809
106,saint-pierre,-21.3393,55.4781,77.0,78,1,9.22,RE,1619757688
107,salalah,17.0151,54.0924,84.2,79,75,8.05,OM,1619757694
108,ossora,59.2353,163.0719,34.86,99,100,1.81,RU,1619757810
109,sorong,-0.8833,131.25,83.61,70,90,3.2,ID,1619757810
110,mantua,45.1667,10.7833,57.99,95,91,1.01,IT,1619757811
111,kuytun,54.3419,101.5036,40.87,78,100,13.35,RU,1619757811
112,dzaoudzi,-12.7887,45.2699,82.4,83,0,6.91,YT,1619757812
113,hambantota,6.1241,81.1185,86.0,84,75,3.44,LK,1619757812
114,yellowknife,62.456,-114.3525,30.2,59,75,11.5,CA,1619757689
115,wattegama,6.7989,81.4808,86.0,84,75,3.44,LK,1619757813
116,senanga,-16.1167,23.2667,63.54,79,22,3.04,ZM,1619757813
117,butaritari,3.0707,172.7902,83.77,72,99,10.09,KI,1619757696
118,ahar,38.4774,47.0699,60.42,65,41,4.47,IR,1619757814
119,leningradskiy,69.3833,178.4167,23.02,85,92,17.25,RU,1619757757
120,nikolskoye,59.7035,30.7861,41.0,69,0,2.24,RU,1619757701
121,upata,8.0086,-62.3989,70.34,87,100,3.83,VE,1619757814
122,hithadhoo,-0.6,73.0833,84.11,70,52,5.97,MV,1619757707
123,salto de agua,17.6167,-92.3667,89.01,41,89,3.36,MX,1619757815
124,puerto ayora,-0.7393,-90.3518,75.24,84,51,8.1,EC,1619757730
125,longyearbyen,78.2186,15.6401,21.2,53,40,9.22,SJ,1619757815
126,codrington,-38.2667,141.9667,74.8,34,0,10.33,AU,1619757799
127,goma,-1.6792,29.2228,63.34,87,100,1.88,CD,1619757816
128,san cristobal,7.7669,-72.225,66.06,99,100,1.54,VE,1619757814
129,katsuura,35.1333,140.3,77.0,53,20,18.41,JP,1619757760
130,bilma,18.6853,12.9164,80.87,8,0,6.98,NE,1619757817
131,strezhevoy,60.7333,77.5889,39.2,81,75,11.18,RU,1619757817
132,coquimbo,-29.9533,-71.3436,55.4,88,90,2.3,CL,1619757817
133,chuy,-33.6971,-53.4616,54.77,85,0,4.72,UY,1619757777
134,dargaville,-35.9333,173.8833,62.38,75,41,7.14,NZ,1619757818
135,sangar,63.9242,127.4739,36.61,85,63,3.0,RU,1619757806
136,mangrol,21.1167,70.1167,86.95,52,93,5.59,IN,1619757818
137,belem,-1.4558,-48.5044,75.2,100,75,1.14,BR,1619757819
138,kodiak,57.79,-152.4072,44.6,76,40,4.61,US,1619757711
139,mahebourg,-20.4081,57.7,78.8,83,40,12.66,MU,1619757741
140,bukene,-4.2333,32.8833,65.44,88,67,7.18,TZ,1619757820
141,tahe,52.3333,124.7333,54.39,29,73,10.54,CN,1619757820
142,college,64.8569,-147.8028,39.2,81,75,8.05,US,1619757460
143,manggar,-2.8833,108.2667,87.33,60,69,8.23,ID,1619757720
144,butembo,0.15,29.2833,60.75,90,98,1.39,CD,1619757821
145,tsabong,-26.0217,22.401,57.33,78,2,8.21,BW,1619757821
146,hualmay,-11.0964,-77.6139,65.84,90,0,8.21,PE,1619757822
147,bambanglipuro,-7.95,110.2833,84.27,70,85,8.23,ID,1619757822
148,pevek,69.7008,170.3133,21.83,84,100,10.25,RU,1619757806
149,belaya gora,68.5333,146.4167,31.12,88,93,5.35,RU,1619757746
150,ribeira grande,38.5167,-28.7,57.51,65,100,7.34,PT,1619757736
151,shellbrook,53.2168,-106.4011,30.2,40,40,3.44,CA,1619757759
152,sumbe,-11.2061,13.8437,76.95,85,99,2.55,AO,1619757824
153,olafsvik,64.8945,-23.7142,39.79,77,72,5.68,IS,1619757825
154,veraval,20.9,70.3667,88.02,50,93,7.2,IN,1619757825
155,kaffrine,14.1059,-15.5508,72.84,39,18,5.82,SN,1619757826
156,pau brasil,-15.4642,-39.6511,67.78,99,87,2.15,BR,1619757826
157,nouadhibou,20.931,-17.0347,64.4,94,0,13.8,MR,1619757827
158,ningxiang,37.34,111.2052,62.62,18,30,29.19,CN,1619757827
159,mende,44.6667,3.5,39.9,98,100,4.88,FR,1619757827
160,chokurdakh,70.6333,147.9167,19.69,87,10,5.82,RU,1619757686
161,cidreira,-30.1811,-50.2056,64.35,80,1,7.61,BR,1619757711
162,jalu,29.0331,21.5482,78.96,16,0,9.46,LY,1619757828
163,hounde,11.5,-3.5167,82.06,57,8,7.83,BF,1619757828
164,dudinka,69.4058,86.1778,30.2,92,69,9.44,RU,1619757829
165,port lincoln,-34.7333,135.8667,73.71,40,76,10.76,AU,1619757734
166,acajutla,13.5928,-89.8275,72.0,86,4,3.0,SV,1619757813
167,oyama,36.3,139.8,78.01,19,20,8.05,JP,1619757829
168,strathroy,42.9551,-81.6223,46.99,85,88,5.01,CA,1619757830
169,hamilton,39.1834,-84.5333,54.0,82,1,6.91,US,1619757723
170,timizart,36.8,4.2667,54.97,67,72,2.33,DZ,1619757830
171,cherskiy,68.75,161.3,20.43,89,65,11.12,RU,1619757758
172,joshimath,30.5667,79.5667,70.97,49,17,6.02,IN,1619757831
173,rawson,-43.3002,-65.1023,64.0,46,97,6.93,AR,1619757465
174,dongsheng,39.8161,109.9776,51.82,27,5,29.59,CN,1619757831
175,buin,-33.7333,-70.75,62.01,93,63,6.91,CL,1619757737
176,byron bay,-28.65,153.6167,71.6,78,75,9.22,AU,1619757715
177,houston,29.7633,-95.3633,78.01,95,93,4.0,US,1619757832
178,hare bay,48.8499,-54.0148,41.0,87,100,9.22,CA,1619757813
179,casian,11.035,119.7136,83.53,69,13,7.18,PH,1619757834
180,muli,2.9167,73.5667,83.32,69,19,0.49,MV,1619757834
181,ilulissat,69.2167,-51.1,30.2,80,100,4.16,GL,1619757739
182,manaquiri,-3.3167,-60.35,78.8,83,75,5.75,BR,1619757836
183,narsaq,60.9167,-46.05,37.4,81,75,4.32,GL,1619757727
184,kasongo-lunda,-6.4667,16.8167,69.42,97,100,0.94,CD,1619757836
185,flin flon,54.7682,-101.865,27.72,62,2,0.69,CA,1619757837
186,sikasso,10.9167,-7.0,81.52,57,81,5.68,ML,1619757837
187,karasjok,69.4719,25.5112,26.6,80,75,21.85,NO,1619757837
188,omboue,-1.5746,9.2618,75.24,92,100,4.74,GA,1619757770
189,takoradi,4.8845,-1.7554,79.38,82,86,2.26,GH,1619757838
190,santa isabel do rio negro,-0.4139,-65.0192,70.95,99,90,1.81,BR,1619757838
191,egvekinot,66.3167,-179.1667,24.03,84,52,2.08,RU,1619757795
192,nenjiang,49.1833,125.2167,48.13,62,98,8.66,CN,1619757839
193,bardiyah,31.7561,25.0865,76.71,28,31,9.33,LY,1619757840
194,guadalupe y calvo,26.1,-106.9667,40.57,58,2,5.61,MX,1619757840
195,nanortalik,60.1432,-45.2371,36.19,84,10,7.38,GL,1619757693
196,sambava,-14.2667,50.1667,79.39,75,7,9.62,MG,1619757840
197,nome,64.5011,-165.4064,26.6,68,75,13.8,US,1619757729
198,laguna,38.421,-121.4238,71.6,37,1,6.91,US,1619757727
199,bonavista,48.6499,-53.1147,39.2,87,100,9.22,CA,1619757841
200,grand gaube,-20.0064,57.6608,80.01,82,16,5.99,MU,1619757843
201,san juan,-31.5375,-68.5364,64.8,48,5,5.32,AR,1619757547
202,hilo,19.7297,-155.09,80.6,61,90,6.91,US,1619757402
203,zhigansk,66.7697,123.3711,33.24,99,99,6.15,RU,1619757719
204,ostrovnoy,68.0531,39.5131,29.1,86,100,18.1,RU,1619757844
205,lompoc,34.6391,-120.4579,53.6,82,13,5.75,US,1619757775
206,saskylakh,71.9167,114.0833,34.03,99,100,7.11,RU,1619757739
207,gomel,52.4345,30.9754,55.0,93,75,13.42,BY,1619757845
208,luderitz,-26.6481,15.1594,54.3,76,0,18.54,NA,1619757687
209,mangan,27.5167,88.5333,83.8,34,61,7.14,IN,1619757845
210,atherton,53.5237,-2.4935,37.0,85,30,2.46,GB,1619757809
211,saint george,37.1041,-113.5841,75.2,17,1,4.27,US,1619757661
212,taltal,-25.4,-70.4833,61.32,87,7,1.21,CL,1619757819
213,eureka,40.8021,-124.1637,52.0,86,100,3.65,US,1619757830
214,sawakin,19.1059,37.3321,83.71,52,97,8.95,SD,1619757847
215,myaundzha,63.0494,147.1858,33.01,90,99,2.13,RU,1619757847
216,akil,20.25,-89.35,76.62,75,25,8.03,MX,1619757847
217,dwarka,22.2394,68.9678,85.23,60,62,8.43,IN,1619757777
218,langarud,37.197,50.1535,66.2,88,75,3.2,IR,1619757848
219,mackay,-21.15,149.2,75.2,73,31,18.41,AU,1619757848
220,opuwo,-18.0607,13.84,62.69,56,60,3.38,NA,1619757794
221,rincon,32.296,-81.2354,73.4,68,40,5.75,US,1619757849
222,doctor juan leon mallorquin,-25.4,-55.2667,62.6,67,0,3.44,PY,1619757849
223,poum,-20.2333,164.0167,77.2,60,88,13.87,NC,1619757743
224,upington,-28.4478,21.2561,48.2,87,0,5.75,ZA,1619757850
225,goundam,16.4145,-3.6708,89.8,23,81,3.94,ML,1619757850
226,vao,-22.6667,167.4833,75.13,56,97,20.36,NC,1619757851
227,pareora,-44.4871,171.2132,55.0,93,98,13.42,NZ,1619757851
228,kibaha,-6.7667,38.9167,77.0,88,75,8.05,TZ,1619757852
229,santa cruz,-17.8,-63.1667,62.6,77,1,4.61,BO,1619757816
230,san jose iturbide,21.0,-100.3833,66.2,59,75,13.8,MX,1619757852
231,avera,33.194,-82.5271,71.6,68,1,9.22,US,1619757609
232,faya,18.3851,42.4509,62.6,72,20,5.75,SA,1619757784
233,anori,-3.7728,-61.6442,72.14,98,71,1.07,BR,1619757853
234,mar del plata,-38.0023,-57.5575,60.01,88,0,6.91,AR,1619757696
235,peremyshlyany,49.6652,24.5585,51.8,87,0,2.24,UA,1619757854
236,jagannathpur,22.2333,85.65,100.44,19,5,8.75,IN,1619757854
237,ardesen,41.1911,40.9875,62.6,72,0,4.61,TR,1619757855
238,suntar,62.1444,117.6319,41.72,56,94,5.61,RU,1619757855
239,iqaluit,63.7506,-68.5145,33.8,93,90,4.61,CA,1619757772
240,atasu,48.6814,71.6433,56.28,58,100,15.21,KZ,1619757706
241,umea,63.8284,20.2597,37.0,69,0,12.66,SE,1619757856
242,mahon,39.8885,4.2658,59.0,94,75,5.75,ES,1619757856
243,brae,60.3964,-1.353,37.4,87,73,8.05,GB,1619757812
244,lithgow,-33.4833,150.15,60.01,97,1,6.15,AU,1619757857
245,chicama,-7.8447,-79.1469,68.02,82,1,5.61,PE,1619757858
246,goderich,43.7501,-81.7165,44.6,93,90,6.91,CA,1619757858
247,tyukhtet,56.5389,89.3011,50.41,57,64,16.75,RU,1619757858
248,fomboni,-12.28,43.7425,81.43,74,9,1.99,KM,1619757859
249,safita,34.8205,36.1153,75.0,59,40,2.3,SY,1619757859
250,caravelas,-17.7125,-39.2481,76.28,69,100,10.42,BR,1619757861
251,shwebo,22.5667,95.7,97.84,34,3,7.54,MM,1619757861
252,soddy-daisy,35.2359,-85.1908,66.99,67,81,5.19,US,1619757862
253,celestun,20.8667,-90.4,82.06,60,9,16.82,MX,1619757862
254,naze,28.3667,129.4833,77.0,61,20,10.36,JP,1619757863
255,saint anthony,45.0205,-93.218,57.2,38,1,9.22,US,1619757863
256,nishihara,26.1842,127.7558,75.2,69,0,10.36,JP,1619757853
257,krasnoselkup,65.7,82.4667,34.14,99,100,17.72,RU,1619757864
258,matay,28.419,30.7792,79.83,18,0,8.5,EG,1619757864
259,archidona,37.0965,-4.3887,54.0,83,66,3.38,ES,1619757864
260,sao joao da barra,-21.6403,-41.0511,66.58,87,56,12.03,BR,1619757720
261,richards bay,-28.783,32.0377,68.47,88,100,17.18,ZA,1619757860
262,amazar,53.858,120.875,47.82,56,92,6.96,RU,1619757865
263,andenes,69.3143,16.1194,28.4,80,75,13.8,NO,1619757866
264,isangel,-19.55,169.2667,76.64,74,85,17.74,VU,1619757866
265,porto velho,-8.7619,-63.9039,77.0,83,40,4.61,BR,1619757866
266,megion,61.0296,76.1136,39.2,81,75,11.18,RU,1619757845
267,alexandria,31.2156,29.9553,66.2,82,0,9.22,EG,1619757867
268,shache,38.4167,77.2406,81.93,8,0,2.53,CN,1619757751
269,itarema,-2.9248,-39.9167,75.4,88,100,6.76,BR,1619757815
270,hasaki,35.7333,140.8333,79.0,64,20,12.66,JP,1619757550
271,kahului,20.8947,-156.47,77.0,83,40,12.66,US,1619757785
272,torbay,47.6666,-52.7314,36.0,93,1,6.91,CA,1619757737
273,malaya purga,56.5567,53.0043,42.01,67,15,4.0,RU,1619757868
274,malakal,9.5334,31.6605,78.78,64,95,3.74,SS,1619757868
275,kumbo,6.2,10.6667,62.73,68,98,1.23,CM,1619757869
276,jaszkiser,47.45,20.2167,55.4,94,0,9.22,HU,1619757869
277,nisia floresta,-6.0911,-35.2086,75.2,94,20,6.91,BR,1619757870
278,bitung,1.4451,125.1824,82.4,83,40,4.61,ID,1619757870
279,kruisfontein,-34.0033,24.7314,55.0,95,85,1.01,ZA,1619757726
280,ashqelon,31.6693,34.5715,77.0,77,0,3.44,IL,1619757870
281,hammerfest,70.6634,23.6821,24.8,74,75,11.5,NO,1619757797
282,klaksvik,62.2266,-6.589,35.6,75,90,1.14,FO,1619757689
283,yazman,29.1212,71.7446,99.14,16,92,6.82,PK,1619757871
284,longyan,25.1072,117.0225,84.67,28,36,4.61,CN,1619757872
285,lakhipur,26.0299,90.3041,98.13,24,3,9.1,IN,1619757872
286,kuala terengganu,5.3302,103.1408,89.6,66,40,5.75,MY,1619757872
287,fairbanks,64.8378,-147.7164,39.2,87,90,14.97,US,1619757731
288,shimoda,34.6667,138.95,72.0,56,20,20.71,JP,1619757873
289,russell,32.3502,-85.1999,71.6,88,75,4.9,US,1619757820
290,kilindoni,-7.9139,39.6668,79.0,83,100,11.05,TZ,1619757873
291,jeremie,18.65,-74.1167,75.72,82,27,5.01,HT,1619757874
292,san patricio,28.017,-97.5169,75.99,88,90,8.05,US,1619757726
293,severobaykalsk,55.65,109.3167,32.92,70,21,4.61,RU,1619757875
294,praia,14.9215,-23.5087,69.8,78,20,12.66,CV,1619757817
295,krasnyy chikoy,50.3643,108.7512,46.47,33,58,6.42,RU,1619757875
296,geraldton,-28.7667,114.6,71.6,43,90,14.97,AU,1619757742
297,shizukuishi,39.6833,140.9833,53.6,66,75,4.61,JP,1619757876
298,ulaanbaatar,47.9077,106.8832,41.0,48,40,17.9,MN,1619757600
299,lasa,46.6166,10.7002,53.01,93,75,3.44,IT,1619757877
300,srednekolymsk,67.45,153.6833,30.31,84,98,8.63,RU,1619757878
301,cap malheureux,-19.9842,57.6142,80.01,83,14,8.01,MU,1619757879
302,ayagoz,47.9714,80.4392,69.15,48,75,12.64,KZ,1619757676
303,zima,53.9202,102.0442,43.54,70,98,11.5,RU,1619757879
304,asau,46.4333,26.4,54.0,55,37,3.76,RO,1619757880
305,weyburn,49.6668,-103.8511,44.6,42,93,5.75,CA,1619757718
306,solnechnyy,50.7214,136.6319,38.3,69,92,9.91,RU,1619757880
307,verkhnevilyuysk,63.4453,120.3167,38.79,65,100,7.07,RU,1619757881
308,fort nelson,58.8053,-122.7002,42.8,70,75,2.3,CA,1619757790
309,nakhon thai,17.1006,100.8374,88.0,70,40,3.44,TH,1619757881
310,kirgiz-miyaki,53.6324,54.7979,48.06,62,78,8.41,RU,1619757882
311,freeport,40.6576,-73.5832,68.0,88,90,10.36,US,1619757813
312,acarau,-2.8856,-40.12,76.3,86,100,7.7,BR,1619757882
313,pochutla,15.7432,-96.4661,80.6,78,40,5.46,MX,1619757883
314,twentynine palms,34.1356,-116.0542,78.8,9,1,5.75,US,1619757883
315,zaigrayevo,51.8336,108.2703,48.2,31,20,8.95,RU,1619757884
316,gigmoto,13.7796,124.39,84.07,63,72,2.33,PH,1619757884
317,bayir,37.2687,28.2167,57.2,58,0,5.75,TR,1619757884
318,tyulgan,52.3405,56.166,50.02,51,65,9.22,RU,1619757885
319,acapulco,16.8634,-99.8901,78.13,81,57,4.34,MX,1619757794
320,kupang,-10.1667,123.5833,86.27,64,22,7.81,ID,1619757885
321,cabedelo,-6.9811,-34.8339,73.4,100,40,5.75,BR,1619757886
322,high level,58.5169,-117.136,42.8,81,90,10.36,CA,1619757826
323,abbeville,50.1,1.8333,33.01,84,98,3.8,FR,1619757886
324,guerrero negro,27.9769,-114.0611,62.92,76,0,14.63,MX,1619757842
325,makakilo city,21.3469,-158.0858,80.6,54,90,9.22,US,1619757723
326,sungaipenuh,-2.0833,101.3833,70.05,85,100,1.12,ID,1619757887
327,mao,39.8885,4.2658,59.0,94,75,5.75,ES,1619757856
328,antalaha,-14.9003,50.2788,79.86,75,26,6.87,MG,1619757825
329,bandarbeyla,9.4942,50.8122,84.45,68,18,5.17,SO,1619757888
330,casas grandes,30.3667,-107.95,48.31,70,42,3.24,MX,1619757888
331,cabo san lucas,22.8909,-109.9124,71.01,53,0,8.19,MX,1619757682
332,turayf,31.6725,38.6637,71.6,37,0,9.22,SA,1619757889
333,nizwa,22.9333,57.5333,83.66,35,100,10.04,OM,1619757889
334,quatre cocos,-20.2078,57.7625,80.01,83,40,12.66,MU,1619757754
335,carutapera,-1.195,-46.02,74.25,94,98,3.65,BR,1619757890
336,port hedland,-20.3167,118.5667,95.0,24,0,13.8,AU,1619757890
337,kavaratti,10.5669,72.642,84.58,73,21,5.39,IN,1619757891
338,ilhabela,-23.7781,-45.3581,68.74,79,70,3.51,BR,1619757891
339,mercedes,-34.6515,-59.4307,55.0,85,0,5.01,AR,1619757891
340,xichang,27.8964,102.2634,79.36,29,100,2.3,CN,1619757892
341,talnakh,69.4865,88.3972,31.95,90,49,1.81,RU,1619757797
342,honiara,-9.4333,159.95,82.54,78,33,3.8,SB,1619757893
343,norman wells,65.282,-126.8329,44.6,29,40,4.61,CA,1619757703
344,neiafu,-18.65,-173.9833,82.4,83,75,8.05,TO,1619757893
345,port hardy,50.6996,-127.4199,50.0,100,90,2.3,CA,1619757828
346,kudahuvadhoo,2.6708,72.8944,83.41,70,45,0.27,MV,1619757749
347,fortuna,40.5982,-124.1573,48.99,87,1,3.69,US,1619757733
348,vanimo,-2.6741,141.3028,83.57,81,90,9.04,PG,1619757895
349,kidal,18.4411,1.4078,84.4,12,15,3.13,ML,1619757896
350,muros,42.7762,-9.0603,42.01,95,8,7.83,ES,1619757897
351,raudeberg,61.9875,5.1352,39.99,76,17,15.93,NO,1619757791
352,marzuq,14.4,46.4667,74.07,56,97,3.06,YE,1619757898
353,sisimiut,66.9395,-53.6735,34.79,78,65,4.54,GL,1619757898
354,hobyo,5.3505,48.5268,85.59,65,87,6.82,SO,1619757899
355,coahuayana,18.7333,-103.6833,71.91,91,31,1.79,MX,1619757899
356,westport,41.1415,-73.3579,66.99,88,75,5.75,US,1619757807
357,toktogul,41.8708,72.9402,68.65,43,0,0.54,KG,1619757900
358,pasil,17.3833,121.1333,83.71,51,23,2.15,PH,1619757900
359,madimba,-10.4,40.3333,77.05,89,85,7.85,TZ,1619757900
360,quelimane,-17.8786,36.8883,73.4,94,40,2.57,MZ,1619757901
361,manjacaze,-24.7117,33.8828,67.55,78,0,5.46,MZ,1619757903
362,kazachinskoye,57.6953,93.2761,42.03,94,100,6.78,RU,1619757904
363,mugur-aksy,50.35,90.5,56.5,41,99,8.37,RU,1619757904
364,taywarah,33.35,64.4167,60.03,30,7,2.68,AF,1619757905
365,padang,-0.9492,100.3543,86.0,70,20,5.75,ID,1619757768
366,vung tau,10.346,107.0843,86.02,66,70,15.01,VN,1619757906
367,henties bay,-22.116,14.2845,57.99,87,2,4.65,NA,1619757779
368,korla,41.7597,86.1469,82.08,10,0,4.83,CN,1619757906
369,urucara,-2.5364,-57.76,72.66,98,89,1.41,BR,1619757907
370,louis trichardt,-23.0439,29.9032,62.28,66,16,2.28,ZA,1619757907
371,chengde,40.9725,117.9361,58.41,16,100,6.62,CN,1619757907
372,nchelenge,-9.3451,28.734,67.95,87,64,3.27,ZM,1619757908
373,bilibino,68.0546,166.4372,24.39,79,100,9.6,RU,1619757748
374,kindu,-2.95,25.95,70.39,99,100,1.9,CD,1619757909
375,caxito,-8.5785,13.6643,75.2,88,40,1.14,AO,1619757909
376,kendari,-3.945,122.4989,87.13,58,56,7.52,ID,1619757909
377,chute-aux-outardes,49.1168,-68.399,41.0,70,1,5.75,CA,1619757788
378,sola,-13.8833,167.55,81.09,69,82,20.07,VU,1619757910
379,vila franca do campo,37.7167,-25.4333,55.4,82,75,4.61,PT,1619757910
380,mazamari,-11.3258,-74.5308,65.37,94,46,0.76,PE,1619757911
381,bandarban,22.1965,92.2262,89.6,70,40,8.05,BD,1619757911
382,vestmannaeyjar,63.4427,-20.2734,42.94,75,97,6.44,IS,1619757771
383,mareeba,-17.0,145.4333,82.99,61,40,13.8,AU,1619757912
384,fukue,32.6881,128.8419,73.4,28,0,14.97,JP,1619757912
385,gao,16.6362,1.637,84.51,12,2,6.02,ML,1619757808
386,lodwar,3.1191,35.5973,84.87,46,100,8.23,KE,1619757913
387,lavrentiya,65.5833,-171.0,25.12,77,32,4.12,RU,1619757724
388,semnan,35.5729,53.3971,70.81,20,0,1.39,IR,1619757913
389,mala tokmachka,47.5356,35.8929,53.6,71,0,6.71,UA,1619757914
390,hervey bay,-25.2986,152.8535,73.0,80,100,5.01,AU,1619757914
391,rio grande,-32.035,-52.0986,60.17,82,1,5.44,BR,1619757883
392,xuanhua,40.6103,115.0447,43.97,70,96,4.61,CN,1619757915
393,mount isa,-20.7333,139.5,86.0,26,75,14.97,AU,1619757705
394,mount gambier,-37.8333,140.7667,77.0,31,0,16.11,AU,1619757594
395,broken hill,-31.95,141.4333,78.8,24,0,11.5,AU,1619757915
396,san policarpo,12.1791,125.5072,82.18,71,29,8.84,PH,1619757916
397,puerto colombia,10.9878,-74.9547,78.8,83,40,11.5,CO,1619757916
398,manakara,-22.1333,48.0167,74.12,89,86,3.15,MG,1619757916
399,los llanos de aridane,28.6585,-17.9182,62.6,72,0,5.75,ES,1619757746
400,pacifica,37.6138,-122.4869,55.99,67,1,16.11,US,1619757918
401,ereymentau,51.6199,73.1033,51.8,34,58,7.7,KZ,1619757919
402,sechura,-5.5569,-80.8222,69.75,77,19,11.21,PE,1619757919
403,vardo,70.3705,31.1107,26.6,80,75,26.46,NO,1619757714
404,kalmunai,7.4167,81.8167,86.88,62,69,5.03,LK,1619757920
405,ensenada,31.8667,-116.6167,64.0,77,0,2.86,MX,1619757915
406,port-gentil,-0.7193,8.7815,79.39,80,100,5.99,GA,1619757920
407,clyde river,70.4692,-68.5914,23.0,93,90,3.44,CA,1619757921
408,poso,-1.3959,120.7524,86.07,66,50,4.74,ID,1619757921
409,dickinson,29.4608,-95.0513,77.0,94,90,10.36,US,1619757841
410,sistranda,63.7256,8.834,33.8,93,75,6.91,NO,1619757922
411,uberaba,-19.7483,-47.9319,62.17,51,99,4.7,BR,1619757856
412,lagoa,39.05,-27.9833,56.35,62,100,5.17,PT,1619757907
413,maxixe,-23.8597,35.3472,66.2,94,20,3.98,MZ,1619757499
414,jos,9.9167,8.9,68.61,66,84,4.29,NG,1619757922
415,blagoyevo,63.3667,47.9167,36.66,62,100,9.1,RU,1619757923
416,ust-nera,64.5667,143.2,37.44,98,100,1.97,RU,1619757759
417,preobrazheniye,42.9019,133.9064,48.78,58,100,10.96,RU,1619757923
418,betanzos,43.2804,-8.2147,43.0,100,90,3.44,ES,1619757924
419,igunga,-4.2833,33.8833,67.73,80,71,5.99,TZ,1619757684
420,general roca,-39.0333,-67.5833,51.8,100,0,0.67,AR,1619757924
421,pangoa,-12.1167,-73.0,62.46,95,6,1.83,PE,1619757925
422,joniskis,56.2403,23.6153,41.0,100,90,11.5,LT,1619757925
423,vuktyl,63.8567,57.3094,36.79,42,66,4.09,RU,1619757788
424,yuanli,24.4397,120.6535,80.6,69,75,5.75,TW,1619757926
425,tamandare,-8.7597,-35.1047,76.3,85,83,8.01,BR,1619757926
426,montlucon,46.3333,2.6,45.0,96,100,3.15,FR,1619757926
427,ancud,-41.8697,-73.8203,57.0,94,90,11.5,CL,1619757927
428,rochefort,45.9167,-1.0,48.99,76,0,8.05,FR,1619757794
429,haines junction,60.7522,-137.5108,41.0,70,100,6.91,CA,1619757824
430,chagoda,59.164,35.3285,33.98,98,100,5.01,RU,1619757928
431,raghunathpur,23.55,86.6667,87.8,70,5,6.91,IN,1619757928
432,okhotsk,59.3833,143.3,39.9,74,95,3.85,RU,1619757928
433,berlevag,70.8578,29.0864,28.4,69,75,25.32,NO,1619757749
434,lircay,-12.9896,-74.7205,47.08,86,99,3.89,PE,1619757929
435,tigil,57.8,158.6667,43.45,79,34,6.42,RU,1619757926
436,verkhnetulomskiy,68.6073,31.7962,28.4,80,75,8.95,RU,1619757930
437,alofi,-19.0595,-169.9187,84.2,79,61,2.3,NU,1619757798
438,kathu,7.9178,98.3332,89.6,62,20,6.91,TH,1619757930
439,mehamn,71.0357,27.8492,28.4,69,75,25.32,NO,1619757919
440,xining,36.6167,101.7667,66.0,27,7,4.47,CN,1619757931
441,san jose,37.3394,-121.895,62.01,67,40,5.75,US,1619757579
442,gambela,8.25,34.5833,76.3,75,99,6.11,ET,1619757931
443,esperance,-33.8667,121.9,59.0,72,75,24.16,AU,1619757778
444,dalhousie,32.5333,75.9833,74.61,20,36,4.18,IN,1619757932
445,sao filipe,14.8961,-24.4956,72.09,76,57,9.06,CV,1619757766
446,rorvik,64.8621,11.2373,33.8,93,75,5.75,NO,1619757932
447,the valley,18.217,-63.0578,79.0,73,20,9.22,AI,1619757818
448,vredendal,-31.6683,18.5012,51.71,80,0,1.19,ZA,1619757933
449,grand-santi,4.25,-54.3833,71.91,99,100,2.17,GF,1619757933
450,letlhakane,-21.4167,25.5833,63.86,72,25,0.67,BW,1619757935
451,mnogovershinnyy,53.9353,139.9242,31.53,80,96,5.97,RU,1619757935
452,swellendam,-34.0226,20.4417,46.4,93,32,3.44,ZA,1619757936
453,anadyr,64.75,177.4833,26.6,74,0,11.18,RU,1619757932
454,hami,42.8,93.45,83.59,9,2,6.06,CN,1619757912
455,shirgaon,19.7,72.7,87.8,70,40,3.44,IN,1619757936
456,touros,-5.1989,-35.4608,73.4,100,40,4.61,BR,1619757819
457,cockburn town,21.4612,-71.1419,78.13,74,1,17.6,TC,1619757937
458,tautira,-17.7333,-149.15,80.6,78,20,2.3,PF,1619757937
459,binzhou,37.3667,118.0167,57.6,45,100,13.94,CN,1619757938
460,banepa,27.6298,85.5214,69.8,56,20,2.3,NP,1619757938
461,kirakira,-10.4544,161.9205,82.67,75,28,9.91,SB,1619757696
462,bowen,-20.0167,148.2333,77.0,65,40,14.97,AU,1619757852
463,boende,-0.2167,20.8667,70.2,98,100,2.35,CD,1619757939
464,marawi,7.9986,124.2928,84.99,79,79,8.01,PH,1619757931
465,ewa beach,21.3156,-158.0072,80.6,54,90,9.22,US,1619757940
466,boueni,-12.9025,45.0761,82.4,83,0,6.91,YT,1619757940
467,kelso,46.1468,-122.9084,53.6,71,1,3.44,US,1619757941
468,yatou,37.15,122.3833,55.11,40,54,14.25,CN,1619757941
469,doha,25.2867,51.5333,87.01,28,0,9.22,QA,1619757664
470,yumen,40.2833,97.2,78.84,7,7,15.79,CN,1619757721
471,polunochnoye,60.8697,60.4153,36.66,42,83,14.29,RU,1619757942
472,mahdalynivka,48.921,34.9156,51.8,76,0,8.95,UA,1619757942
473,bozova,37.3625,38.5267,66.2,52,0,3.44,TR,1619757943
474,doka,13.5167,35.7667,82.53,54,100,13.22,SD,1619757943
475,kameoka,35.0,135.5833,75.0,58,24,3.0,JP,1619757944
476,baykit,61.67,96.37,42.71,67,98,11.9,RU,1619757774
477,seoul,37.5683,126.9778,57.2,67,75,2.3,KR,1619757922
478,luwuk,-0.9516,122.7875,86.97,62,30,3.78,ID,1619757945
479,luanda,-8.8368,13.2343,75.2,88,40,1.14,AO,1619757627
480,talakan,50.3167,130.3667,56.52,37,95,6.78,RU,1619757945
481,jiehu,35.5428,118.455,70.61,36,98,4.68,CN,1619757946
482,erechim,-27.6342,-52.2739,47.05,78,0,4.18,BR,1619757946
483,arlit,18.7369,7.3853,82.99,9,1,5.44,NE,1619757805
484,hovd,48.0056,91.6419,73.42,17,78,8.66,MN,1619757947
485,samarkand,39.6542,66.9597,71.6,37,40,16.11,UZ,1619757947
486,aksu,41.1231,80.2644,81.52,9,0,1.28,CN,1619757948
487,oeiras,-7.0253,-42.1311,72.82,88,82,2.84,BR,1619757948
488,muroto,33.2833,134.15,68.0,64,75,5.75,JP,1619757949
489,salinopolis,-0.6136,-47.3561,77.83,84,96,3.09,BR,1619757949
490,corrente,-3.7367,-43.3394,72.18,99,100,3.18,BR,1619757950
491,namatanai,-3.6667,152.4333,85.98,62,83,4.27,PG,1619757803
492,pag,44.445,15.0575,53.6,100,40,2.3,HR,1619757950
493,naifaru,5.4444,73.3657,84.02,68,22,5.28,MV,1619757951
494,kirovskiy,45.0917,133.5136,62.82,28,100,3.53,RU,1619757951
495,juruti,-2.1522,-56.0922,73.17,94,86,2.68,BR,1619757951
496,christchurch,-43.5333,172.6333,57.0,71,75,19.57,NZ,1619757855
497,bakau,13.4781,-16.6819,68.0,88,0,10.36,GM,1619757952
498,iquique,-20.2208,-70.1431,62.6,72,0,4.41,CL,1619757847
499,moerai,-22.4333,-151.3333,78.85,78,73,14.94,PF,1619757952
500,walvis bay,-22.9575,14.5053,48.2,93,0,6.91,NA,1619757817
501,saraza,8.7356,117.78,86.59,66,15,9.26,PH,1619757954
502,lomovka,53.9194,58.3672,48.2,34,40,15.66,RU,1619757955
503,worthington,40.0931,-83.018,53.01,92,45,9.6,US,1619757955
504,xinxiang,35.3089,113.8672,89.15,12,9,25.5,CN,1619757956
505,ikwiriri,-7.9562,38.9716,74.23,95,95,2.17,TZ,1619757957
506,cumana,10.4635,-64.1775,86.0,62,100,4.61,VE,1619757957
507,tecpan,14.7623,-90.9947,66.2,88,75,9.22,GT,1619757958
508,bundaberg,-24.85,152.35,75.2,57,100,13.8,AU,1619757958
509,sarkand,45.41,79.9186,84.43,16,3,9.84,KZ,1619757920
510,medea,36.2642,2.7539,59.0,72,75,3.44,DZ,1619757958
511,ahipara,-35.1667,173.1667,63.25,71,20,8.12,NZ,1619757699
512,warrnambool,-38.3833,142.4833,73.99,51,0,2.84,AU,1619757959
513,roma,43.2128,-75.4557,48.2,93,90,14.97,US,1619757688
514,saldanha,-33.0117,17.9442,55.4,82,0,10.36,ZA,1619757732
515,maragogi,-9.0122,-35.2225,76.21,86,82,7.72,BR,1619757920
516,deputatskiy,69.3,139.9,24.66,87,99,4.29,RU,1619757762
517,ostersund,63.1792,14.6357,30.99,86,75,13.8,SE,1619757960
518,trelew,-43.249,-65.3051,63.7,40,95,6.44,AR,1619757961
519,atar,20.5169,-13.0499,75.61,39,86,5.32,MR,1619757962
520,diego de almagro,-26.3667,-70.05,56.46,57,0,3.06,CL,1619757962
521,hornepayne,49.2138,-84.7705,29.66,81,65,13.31,CA,1619757963
522,mincivan,39.0294,46.7185,62.78,85,72,2.17,AZ,1619757963
523,rudbar,30.15,62.6,90.99,17,40,8.68,AF,1619757963
524,penzance,50.1186,-5.5371,37.4,87,4,8.05,GB,1619757964
525,yar-sale,66.8333,70.8333,31.48,99,100,6.31,RU,1619757850
526,obigarm,38.7173,69.7088,69.12,38,4,5.01,TJ,1619757964
527,shawnee,39.05,-95.7669,60.8,41,1,6.91,US,1619757965
528,abay,49.6311,72.8539,53.6,37,0,15.66,KZ,1619757965
529,xam nua,20.4197,104.0439,79.03,66,60,0.69,LA,1619757966
530,reconquista,-29.15,-59.65,53.15,74,0,5.03,AR,1619757966
531,kiunga,-6.1219,141.2906,86.27,67,95,2.19,PG,1619757966
532,husavik,66.0449,-17.3389,35.6,80,90,6.91,IS,1619757769
533,dalianwan,39.0286,121.695,51.8,62,20,6.71,CN,1619757864
534,mwinilunga,-11.7358,24.4293,61.34,94,83,3.06,ZM,1619757967
535,alice springs,-23.7,133.8833,80.6,16,2,6.91,AU,1619757922
536,halifax,44.6453,-63.5724,48.0,87,100,2.3,CA,1619757860
537,soligalich,59.0778,42.2864,40.08,75,99,6.62,RU,1619757968
538,tilichiki,60.4667,166.1,33.21,99,100,2.59,RU,1619757712
539,teya,60.3778,92.6267,36.36,99,100,10.45,RU,1619757718
540,kutum,14.2,24.6667,73.47,27,15,5.61,SD,1619757969
541,iacu,-12.7672,-40.2117,68.36,94,11,2.75,BR,1619757805
542,sokoni,-6.4333,39.55,77.0,88,75,8.05,TZ,1619757798
543,kombissiri,12.0656,-1.3375,87.8,45,0,8.05,BF,1619757969
544,port shepstone,-30.7414,30.455,65.07,87,100,13.94,ZA,1619757970
545,nyrob,60.733,56.7202,38.3,45,7,7.99,RU,1619757970
546,riyadh,24.6877,46.7219,77.0,19,0,4.61,SA,1619757828
547,santo antonio do leverger,-15.8656,-56.0767,71.6,78,0,5.75,BR,1619757971
548,broome,42.2506,-75.833,52.0,100,90,12.66,US,1619757868
549,plettenberg bay,-34.0527,23.3716,58.8,81,98,6.15,ZA,1619757909
550,letlhakeng,-24.0944,25.0298,58.86,86,48,6.87,BW,1619757973
551,yenangyaung,20.4667,94.8833,96.73,38,13,9.42,MM,1619757973
552,umm kaddadah,13.6017,26.6876,75.96,68,83,6.91,SD,1619757974
553,soron,27.8833,78.75,100.81,13,93,4.07,IN,1619757974
554,batagay,67.6333,134.6333,32.32,91,97,1.5,RU,1619757974
555,zyryanka,65.75,150.85,34.32,85,100,3.62,RU,1619757762
556,dombarovskiy,50.7587,59.5386,52.93,44,1,6.89,RU,1619757975
557,tenenkou,14.4572,-4.9169,91.2,25,90,7.18,ML,1619757788
558,loyga,61.0784,44.6075,38.39,59,95,8.25,RU,1619757976
559,southbridge,42.0751,-72.0334,50.0,99,100,1.99,US,1619757976
